@id;@lat;@lon;name
452409476;54.3816181;18.6110949;Fukafe
590067562;54.4400296;18.5731547;Jahmajka
595656630;54.3496570;18.6557463;Cafe Kamienica
746495995;54.3502671;18.6500841;Retro
746496055;54.3494278;18.6487011;Costa Coffee
746496115;54.3494219;18.6497614;Lodziarnia Grycan
746496128;54.3483148;18.6528001;Cafe Nescafe
746496140;54.3495405;18.6491528;Ferber
818710145;54.3527857;18.6579715;Segafredo
841257241;54.7613120;17.5536744;Lodowa Przystań
868391956;54.6980949;18.6814338;Capuccino Cafe
970337221;54.6034762;18.8038266;Caffe Domek
1040864962;54.4234983;18.4722305;Przystanek Mozaika
1290306829;54.3460858;19.1140285;
1359939274;54.5884579;16.8593226;
1366107984;54.6989519;18.6799472;Cafe Solaris
1366734205;54.8001196;18.3999248;
1366784681;54.7988016;18.3945095;Antylia Cafe
1468341835;54.6842001;18.7136250;Cafe Mexicana
1766416842;54.3713443;18.6197454;Mikawa
1781680986;54.4814771;18.5641031;Domek Żeromskiego
1796267991;54.3716976;18.5186125;Cukiernia Sowa
1805678004;54.3869473;18.5922466;ŻAK
1818526105;54.4430651;18.5620126;La Crema Cafe
1833147048;54.0964131;18.7668192;Kavajetu
1833188306;54.0880067;18.7867427;Risto Cafe
1866826711;53.7235568;17.9107605;Zajazd Fojutowo
1899762984;54.3227668;18.5527335;Cukiernia Sowa
1901984449;54.3581744;18.5838532;
1936510218;54.5117679;18.5386284;Galeria Malucha
2112590188;54.4644976;17.0245332;
2112614759;54.4658616;17.0261371;
2166644205;54.5205777;18.5415040;Tarabum Cafe
2272085574;53.9680473;18.5331052;Cafe Anka
2301825332;54.3727731;18.6251037;Przystanek Opera
2301836997;54.3491625;18.6497133;Cukiernia Sowa
2340124786;54.5181547;18.5409017;Cafe Desdemona
2347227991;54.5191635;18.5523891;
2349490598;54.5175541;18.5414597;Starbucks
2349653233;54.5156854;18.5411402;Cynamon
2357696965;54.5196868;18.5482074;Costa Coffee
2360457135;54.3805699;18.4693050;so! coffee
2360723892;54.3822484;18.4653551;So! Coffee
2360723896;54.3818309;18.4676740;so! caffee
2365410243;54.5210272;18.5434823;Cafe Vademecum
2380821473;54.5198576;18.5478010;Dom Czekolady
2391323663;54.3509403;18.6503584;Cafe Factotum
2401246202;54.4453701;18.5665956;Julka Cafe
2401246203;54.5212182;18.5406319;Lavenda Cafe Galeria
2427695661;53.7722429;17.5210074;Pod wierzą
2429449050;53.9203983;19.3485897;Kawiarnia
2464003106;54.3797205;18.6070687;Prasówka
2466202229;54.4443871;18.5658221;Kawiarnia Zaścianek
2466569023;54.5117673;18.5389516;Mariola cafe
2503837985;54.5207663;18.5309056;So! Coffee
2599066796;54.5185547;18.5477810;Skwerek Cafe
2617642957;54.3533985;18.6485230;Chochlik
2671849610;54.3719703;18.6272385;deKafe
2734121162;54.6057229;18.8025545;Słoneczna
2799576814;54.6062590;18.8018802;Goppion Caffe
2818063429;54.5854879;16.8649963;Lodowa góra
2832593714;54.6040241;18.8032820;Marta Cafe
2833410876;54.6033714;18.8038822;Majeczka
2836745814;53.8243038;17.3793368;
2845173324;54.6047583;18.8015600;Kawiarnia
2935371924;54.3227436;18.6326388;Kuźnia CAFE
2974482399;54.4860329;18.4275424;Slow Cafe
2981718446;54.6849733;18.7180755;
2984291024;54.5087576;18.5444085;Ciuciu Babka Cafe
2985504629;54.8303712;18.2254277;
2999874000;54.5722457;18.3858365;McCafé
3022041083;54.6666928;17.0493002;Piast
3024404617;53.8939627;18.3797199;
3039404767;54.3471162;18.6581048;A La Francaise
3062514245;54.4093205;18.5619379;Kafe Delfin
3160119127;53.7124365;17.5483145;Bar Kawiarnia Fantazja
3160119363;53.6953826;17.5607919;Widokowa Cafe
3312048786;54.4660770;17.0295105;Kafeina
3352975455;54.0927370;18.7869583;
3378754663;54.2935777;18.1236104;
3635119124;54.4238933;18.5999767;Lody
3648313553;54.6323342;18.5095124;
3656928201;54.3721830;18.5206980;Costa
3656928203;54.3720365;18.5209805;Modern Cafe
3656928205;54.3722400;18.5206891;Szydłowski
3694664527;54.7004682;18.6766729;Kaszebszczi Nurcek
3716001898;54.3410740;18.5585542;Jasieńska Kawka
3768037029;54.3529222;18.6470518;Południk 18
3785376593;54.5211785;18.5327088;Coffee Time
3786328427;54.5208902;18.5327613;Cukiernia Justynka
3800944178;54.3430047;18.6465031;MITTE Chleb i kawa
3842565519;54.5407733;17.7475651;Klaja Cafe
3871185132;53.7334544;18.9240496;Piwnica Kulturalna Spichlerz
3892659289;54.5201216;18.5388113;Black & White Coffee
3892781197;54.5194792;18.5367946;Delicje
3892781198;54.5194956;18.5367953;Delicje
3972716128;53.9656564;18.5232069;Sokoloko
3972716130;53.9682482;18.5324570;Klubokawiarnia Szafa
3972716137;53.9639164;18.5296526;Grycan
3972716138;53.9639789;18.5289943;Kropidłowscy
3972716139;53.9644952;18.5288103;Carte d'Or
3997800547;54.3812550;18.5905834;Sztuka Wyboru
3997800549;54.3811620;18.5907513;Kreatywna Cafe
3999157026;54.5166204;18.5420196;That English Place
4064369794;54.5137675;18.5398034;Corner Cafe
4122606793;54.4675898;17.0284156;Cafe Baccarat
4122630790;54.4646081;17.0337594;Cafe Księgarnia
4122641490;54.4647531;17.0355391;Herbaciarnia w Spichlerzu
4122661190;54.4662537;17.0301659;Orient Cafe
4155926292;54.0365953;19.0343359;Bagietka cafe
4156039589;54.0364149;19.0342042;News Bistro
4161988097;54.4449754;18.5677082;Grycan
4170217921;54.5331423;18.5480681;Cafe Bistro
4212150189;54.5840116;16.8562683;Góra Lodowa
4212228063;54.5846999;16.8557472;Cukiernia
4228799310;54.5882532;16.8545273;Lody Usteckie
4228803054;54.5879874;16.8551711;Świat Lodów Soprano
4228804494;54.5879944;16.8555728;Express Pastello
4310543167;54.4276137;18.5637354;lalala
4318469697;54.4090371;18.5565523;Stary Rynek - Piekarnia Cafe
4322168555;54.2604513;18.6379213;Kameleon
4328357793;54.3511753;18.6548008;Café Bakalia
4344485951;54.8147729;17.9601357;Cafe Regent
4346611241;54.3566245;18.6486288;Costa Coffee
4346611242;54.3565288;18.6487088;Cukiernia Sowa
4354683801;54.3496280;18.6559459;Drukarnia
4356188000;54.3845257;19.4523499;Kawiarnia Pod Globusem
4358896818;54.7603285;17.5518230;Cafe No 5
4363595720;54.3520454;18.6505152;Cafe Szafa
4379449900;54.5042697;18.5319207;Costa Caffee
4387235759;54.4027557;18.5720985;Starbucks
4430444991;54.4036085;18.5711790;Gorąco Polecam Nowakowski
4463516800;54.3829792;18.6062088;BonBon Patisserie
4463516805;54.3822385;18.6064457;Cristal Caffe
4463516850;54.3830429;18.6058587;Second Cup
4463516864;54.3820356;18.6059550;Town Cafe
4464646026;54.3940434;18.3954602;Cafe Kulka
4520414828;54.5645606;18.5042883;Zielona Wyspa
4575242504;54.3501278;18.6562222;Altana Smaków
4577020390;54.3340254;18.2017736;Cukiernia Janca
4583024295;54.3513324;18.6497965;Anima Cafe
4589196003;54.4475115;18.5643230;LAS Cafe
4728112693;54.3481627;18.6556024;
4755916476;54.7205341;18.4135904;Willa Puck Cafe
4856110173;53.9606374;18.5363988;Piekarnia Liniewo
4882967979;54.3405273;18.5597783;Kawiarenka parafialna
4913321700;54.2609464;18.6370552;Czika Caffe
4913321701;54.2609136;18.6369613;Verona
5016169338;54.7603437;17.5513705;Zakątek Klary
5032405902;54.6025421;18.2280823;Busola
5035147396;54.4464803;18.5671172;Happy New York
5047471339;54.5135905;18.5410746;Kawiarnia-Cukiernia Więcej
5077719785;54.3496782;18.6484207;Bruderschaft
5077729587;54.3505074;18.6500833;Balsam
5077729589;54.3500116;18.6508994;Pikawa
5078783444;54.4364547;18.5817017;
5078783447;54.4444568;18.5693329;Bacio di Caffè
5078786483;54.4264203;18.5970874;
5078786540;54.4359805;18.5822657;
5078786543;54.4445294;18.5692876;1911 Cafe
5078786627;54.4445636;18.5692278;
5078786632;54.4457629;18.5675581;Delicje
5078983075;54.4453642;18.5702584;Tawerna Rybacka
5079158151;54.4442492;18.5667857;Costa Coffee
5082103588;54.3476403;18.6608053;Żabka
5082103600;54.3530891;18.6544046;Fusy
5082103791;54.3479670;18.6607668;
5082103794;54.3504467;18.6543187;Młynek
5082103861;54.3614855;18.6495987;
5082103999;54.3509560;18.6535855;Filmowa
5092988525;54.4681096;18.4867233;Słodki Przystanek
5139637836;54.3488238;18.6619436;
5140927042;54.5177631;18.5407277;Kofeina
5204662279;54.4411664;18.5629892;Pociąg do...
5253941807;54.0867746;18.7925074;Corner Bakery
5255344096;54.4003332;18.5754506;Starbucks
5265567419;54.0891170;18.8025765;Mała Czarna
5357134207;54.4437145;18.5659124;Pijalnia czekolady E. Wedel
5380212923;54.5195148;18.5421394;Cukienia "Więcej!'
5380221421;54.5135904;18.5410083;Kawiarnia Cukiernia Wiecej
5538596901;54.5218681;18.5394000;Biały Kot - Kocia Kawiarnia
123492249;;;Bolito
127184280;;;Cafe Strych
163696640;;;
180311864;;;Oranżeria La Belle
180450968;;;Coffe & Tea
180450969;;;Costa Coffee
180450978;;;So!Coffee
180805251;;;Costa Coffee
180805289;;;Nice Ice
199389221;;;
225860763;;;
231141437;;;Donald
231807648;;;Ciacho
298681696;;;Pracownia Café "Kossakówka"
341612838;;;Kawiarnia Weranda
363361056;;;
372099128;;;
432247753;;;Caffe Milano
432247759;;;Jędruś
437747116;;;Lodowa Kraina
438293979;;;Kawiarnia "Pod Świerkami"
