@id;@lat;@lon;name
304557836;54.4491162;18.5625632;Szkoła Podstawowa nr 7
311591073;53.9297510;18.6976273;Liceum Ogólnokształcące im. Janusza Stanislawa Pasierba
311775826;53.8638938;18.6533890;Publiczna Szkoła Podstawowa im. Marii Konopnickiej
470980198;53.6951368;17.5579919;SP1
470981215;53.6948612;17.5577414;GIM2
760302162;54.5794713;18.4015626;Szkoła podstawowa im. Józefa Wybickiego
841219391;54.7614242;17.5577709;Szkoła Podstawowa im. Adama Mickiewicza
883636332;54.4209492;18.4790736;Gimnazjum nr 33
914431837;54.6656000;17.2108601;Zespół Szkół Szkoła Podstawowa i Gimnazjum w Smołdzinie
1192386055;54.7213048;18.4096347;Specjalny Ośrodek Szkolno-Wychowawczy w Pucku
1193845686;54.7157479;18.4204492;Szkoła Podstawowa Im. Mariusza Zaruskiego
1193851877;54.7168487;18.4159148;Państwowa Szkoła Muzyczna I st. Im. Stanisława Moniuszki
1256609856;53.9961122;17.4055829;Zespół Szkół w Lipnicy
1350326343;54.6101008;18.5025815;Gimnazjum w Mostach
1350326345;54.6099673;18.5029356;Szkoła podstawowa w Mostach
1380964540;54.5762025;16.8731323;Liceum Ogólnokształcące dla Dorosłych
1380964545;54.5761178;16.8731323;Społeczne Gimnazjum Usteckiego Towarzystwa Oświatowego
1380964547;54.5762899;16.8731276;Zespół Szkół Ogólnokształcących imienia Mikołaja Kopernika
1403628496;53.7393191;18.0024184;Szkoła
1416905314;54.4708535;17.0224234;
1416905316;54.4736294;17.0241437;
1416905935;54.4747134;17.0268314;
1416910719;54.4682544;17.0356076;
1426277957;54.1842057;18.6786993;Szkoła Podstawowa
1780915726;54.3606301;18.6449992;Gdańskie Liceum "Lingwista"
1853394315;54.3248154;18.1941325;Zespół Szkół Ogólnokształcących nr 2 w Kartuzach
1857961206;54.2071349;18.7643833;Zespół Szkół w Suchym Dębie
1888904661;54.6010471;17.0410252;Publiczne Gimnazjum w Objeździe
1907403415;54.6033483;18.2457810;Perfect English
1915954035;54.7189993;18.4089547;I Liceum Ogólnokształcące imienia Stefana Żeromskiego
1915954042;54.7190427;18.4089809;Niepubliczne Gimnazjum
1916266763;53.7572887;17.1123569;Zespół Szkół
1946240363;54.4208604;18.4791667;XXIV Liceum Ogólnokształcące w Gdańsku
1985875315;54.4723239;17.1177761;Gimnazjum w Redzikowie im. kard. Stefana Wyszyńskiego
1985875316;54.4723379;17.1176124;Szkoła Podstawowa w Redzikowie
2022226690;54.7068423;18.3575542;Szkoła Podstawowa im. Antoniego Abrahama
2084485370;54.0366927;19.0600348;Szkoła Podstawowa nr 2
2116364880;54.5582013;18.5054054;Gimnazjum nr 17
2116364881;54.5588893;18.5111741;Gimnazjum nr 27
2116364882;54.5584843;18.5053713;Szkoła Podstawowa nr 44 im. Obrońców Wybrzeża
2116364883;54.5588460;18.5110218;Szkoła Podstawowa nr 50
2120421347;54.3962280;18.6084404;Gimnazjum nr 16
2120421348;54.4021891;18.6044393;Gimnazjum nr 18 im. Jana Pawła II
2120421349;54.3958508;18.6085998;Szkoła Podstawowa nr 48
2120421350;54.4023481;18.6045206;Szkoła Podstawowa nr 5 im. Jana Pawła II
2120421351;54.4020343;18.6042732;XIV Liceum Ogólnokształcące im. Jana Pawła II
2127288457;54.3466286;18.4330904;Publiczne Gimnazjum
2127288458;54.3466056;18.4327323;Szkoła Podstawowa im. Jana Pawła II
2127414276;54.2619059;18.6504859;Gimnazjum nr 1
2127414277;54.2606730;18.6286186;Gimnazjum nr 2
2127414278;54.2617079;18.6505478;Liceum Ogólnokształcące nr 1
2127414279;54.2607541;18.6280343;Szkoła Podstawowa nr 2 im. Mikołaja Kopernika
2131023572;54.2927311;18.2210630;Gimnazjum im. ks. Antoniego Arasmusa
2131023585;54.3449887;18.8297144;Szkoła Podstawowa Nr 87
2131023591;54.2928118;18.2210076;Szkoła Podstawowa im. Partyzantów Gryfa Pomorskiego
2154687774;54.5557976;18.5189955;Gimnazjum nr 14 w Gdyni
2154687778;54.5560361;18.5192326;XIII Liceum Ogólnokształcące w Gdyni
2165294147;54.0291036;19.0442982;
2208464328;54.4534144;17.9325462;Szkoła Podstawowa, Gimnazjum
2208464984;54.4531582;18.0308902;
2208759156;54.3873940;18.3590230;Szkoła Podstawowa w Miszewie
2290904030;54.5327900;17.7426800;Centrum Kształcenia Praktycznego
2317537387;54.1732724;18.6989723;Szkoła
2349414784;54.2160544;18.0993698;Publiczne Gimnazjum im. Szymbarskich Zakładników
2349414788;54.2160540;18.0990030;Szkoła Podstawowa im. Juliusza Kraziewicza
2376429109;54.4714030;17.7323765;
2390422906;53.9217626;17.8635969;Publiczne Gimnazjum
2390422907;53.9216367;17.8631527;Szkoła Podstawowa
2395598582;53.9997530;17.6656143;Szkoła Filialna im. Anny Łajming
2420593899;54.4094043;18.6308642;Szkoła podstawowa nr 20
2442509564;54.5744069;18.1065491;Gimnazjum Publiczne im. Pisarzy Kaszubsko - Pomorskich w Luzinie
2461174750;54.5624600;18.1058900;Szkoła Podstawowa w Luzinie
2461175316;54.5957400;18.1009900;Szkoła Podstawowa im. Jana Pawła II
2474864912;54.0896206;18.7944408;Podstawowa nr 5 im. Adama Mickiewicza
2506229999;54.5495161;18.5121926;Szkoła Językowa AMBIT
2526211797;54.7232089;18.1365831;Szkoła Podstawowa w Lubocinie
2537975111;53.7330234;18.9240564;Szkoła muzyczna I stopnia im. Feliksa Nowowiejskiego
2599338748;54.1785953;17.5013890;SP 2
2599662883;54.3958559;18.4000896;Szkoła Podstawowa im. ks. prałata Józefa Bigusa
2611353276;53.8713929;17.6756993;
2615292785;54.4221276;18.4782263;Szkoła języków europejskich UNIVERSUS
2621588429;54.4082471;18.5839520;Gimnazjum nr 20
2669766846;54.6082660;18.1633420;Szkoła Podstawowa im. mjr Henryka Sucharskiego
2694619962;54.1540937;17.6380809;Szkoła Podstawowa im. TOW „Gryf Pomorski”
2694662261;54.1543478;17.6381353;Gimnazjum
2712777732;54.1716278;18.6851312;Szkoła Podstawowa im. Bohaterów Ziemi Gdańskiej
2806227888;54.3849684;18.6135413;Zespół Szkół gastronomiczno-Hotelarskich w Gdańsku
2972588790;53.7985100;17.2634100;Zespół Szkół w Przechlewie
2976563451;54.7007279;18.6740276;Gimnazjum im. Jana Pawła II
2976563452;54.7006150;18.6745484;Szkoła Podstawowa im. Józefa Wybickiego
3025776219;53.7975435;18.5317183;Szkoła podstawowa
3027326250;54.7855629;17.9935633;Szkoła Podstawowa im. Kornela Makuszyńskiego
3027686572;54.3788776;18.6070012;Szkoła muzyczna I stopnia im. Grażyny Bacewicz
3033129342;54.2784304;17.0994047;Szkoła Podstawowa im. Marii Konopnickiej
3033499993;54.3829433;16.9644066;Szkoła Podstawowa im. Jana Kochanowskiego
3033541226;54.3898375;16.9043841;Szkoła Podstawowa im. Książąt Pomorskich
3033553343;54.4387695;16.9996991;Zespół Szkół Samorządowych
3041657296;54.4223223;18.4800684;Szkoła językowa Progress
3130137692;54.1030189;17.7822275;Szkoła Podstawowa i Gimnazjum
3402490865;54.3440119;18.5616276;Gimnazjum nr 48 im. Lecha Bądkowskiego
3457937489;54.3545896;17.8417472;Szkoła Podstawowa w Łyśniewie
3531205437;54.3324116;18.5971177;Morska Niepubliczna Szkoła Podstawowa
3599929957;54.5691633;18.0362648;
3628471923;54.5688158;18.3916375;Zespół Szkół Ponadgimnazjalnych nr 1 w Rumi
3680451872;54.4921665;18.4213202;Szkoła Podstawowa nr 37
3692361517;53.7231021;18.4932351;Szkoła podstawowa
3708516157;54.3435192;18.5616957;Szkoła Podstawowa nr 85 im. Zrzeszenia Kaszubsko-Pomorskiego
3747294603;54.5659428;18.3991667;
3898898499;54.5223285;18.5450553;IX Liceum Ogólnokształcące im. Marszałka Józefa Piłsudskiego
3898898510;54.5221890;18.5450794;Wojewódzki Zespół Szkół Policealnych w Gdyni
4087710465;54.5083534;18.5375444;Centrum nauki języka niemieckiego
4122549593;54.4710085;17.0357061;Szkoła Podstawowa nr 7 im. Władysława Broniewskiego
4122845889;54.4670917;17.0387526;Szkoła Podstawowa nr 2 im. Tadeusza Kościuszki
4280403349;54.2418908;17.2273092;
4303177406;53.5384423;17.3885430;Szkoła Podstawowa w Starym Gronowie
4310543166;54.4290382;18.5637802;Sopocka Szkoła Wyższa
4328469181;54.0251192;19.0482837;Centrum Edukacji Zawodowej
4358605168;54.4270710;18.2349007;Szkoła Podstawowa w Rębie
4417354717;54.1360338;18.7181093;Szkoła Podstawowa. im. Obrońców Pomorza Gdańskiego
4419294189;54.5240399;18.5069587;Szkoła Podstawowa nr 17
4868623321;54.4559179;16.9970024;Zespół Szkół Informatycznych
4916966795;54.0260651;19.0435304;Szkoła Podstawowa nr 5 z Oddziałami Integracyjnymi im. UNICEF
4916966796;54.0261296;19.0421441;Gimnazjum nr 3 im. Stefana Batorego
4947025636;54.3256758;18.6006044;Chrześcijańska Szkoła Montessori nr 2
5133443475;54.4081101;18.5840714;Szkoła Podstawowa nr 71
5530785309;54.6030684;18.2358316;Szkoła językowa Karen’s School Wejherowo
5561625918;54.1685440;17.9704604;Szkoła podstawowa w Skorzewie im. Jana Pawła II
59200627;;;Zespół Szkół Ogólnokształcących
60064090;;;Zespół Szkół nr 2
60103285;;;Szkoła Podstawowa nr 8
60134084;;;Szkoła Podstawowa nr 55
60134088;;;Zespół Szkół Ogólnokształcących nr 5
60134104;;;Zespół Szkół Morskich im. Bohaterskich Obrońców Westerplatte
60142967;;;Szkoła Podstawowa nr 57
60231926;;;VIII Liceum Ogólnokształcące im. Komisji Edukacji Narodowej
60231930;;;Szkoła Podstawowa nr 14 im. ks. Grzegorza Piramowicza
60235403;;;Gimnazjum nr 3 im. Jana Pawła II i VII Liceum Ogólnokształcące im. Józefa Wybickiego
61120723;;;Szkoła Podstawowa im. księdza biskupa Konstantyna Dominika
65032946;;;Zespół Szkół nr 2
66993478;;;Zespół Szkół w Chojnicach
69357159;;;
69357168;;;
69357171;;;
75062769;;;Warsztat Terapii Zajęciowej
86494312;;;Szkoła Podstawowa im. Włodzimierza Steyera oraz Gimnazjum im. Jana Pawła II
88457134;;;X Liceum Ogólnokształcące
88463693;;;Szkoła Podstawowa nr 17
88463883;;;Wojewódzki Zespół Szkół Policealnych nr 2
88467347;;;XV Liceum Ogólnokształcące
88474964;;;
88689985;;;Szkoła Podstawowa im. Władysława Konefki oraz Gimnazjum
89080172;;;Zespół Szkół Ponadgimnazjalnych im. Stanisława Staszica
90584258;;;Szkoła Podstawowa nr 20 im. Jana Grudzińskiego
95505807;;;Zespół Szkół Ponadgimnazjalnych nr 1 im. Noblistów Polskich
95506117;;;Zespół Szkół Agrotechnicznych
95506745;;;Gimnazjum nr 2 im. Ks. Jana Twardowskiego
98361579;;;Gimnazjum
99940150;;;Szkoła Podstawowa nr 2 im. kontradmirała Włodzimierza Steyera
100033707;;;Zespół Szkół Ogólnokształcących nr 3
100033709;;;Szkoła Podstawowa nr 10 im. Polonii
100051583;;;Szkoła Podstawowa nr 8 im. Żołnierzy Armii Krajowej
100051617;;;
100051961;;;Środkowopomorskie Centrum Kształcenia Ustawicznego
100127752;;;Szkoła Muzyczna
100320231;;;Szkoła Podstawowa nr 4
100320267;;;Gimnazjum nr 4 im. Orła Białego
100351270;;;Szkoła Podstawowa nr 3 im. Janusza Korczaka
100479951;;;Szkoła Podstawowa nr 9
100479964;;;II Liceum Ogólnokształcące z Oddziałami Dwujęzycznymi im. Adama Mickiewicza
102696323;;;Szkoła Podstawowa nr 89
102715842;;;Zespół Szkół Architektury Krajobrazu i Handlowo-Usługowych
102721865;;;III Liceum Ogólnokształcące
103080617;;;Gimnazjum nr 1
103080618;;;IX Liceum Ogólnokształcące
103320151;;;Szkoła Podstawowa nr 27
103325081;;;Zespół Kształcenia Podstawowego i Gimnazjalnego nr 26
103335936;;;Ogólnokształcące Liceum Programów Indywidualnych
103462476;;;
103572669;;;V Liceum Ogólnokształcące
103797902;;;Niepubliczna Szkoła Podstawowa "Fregata"
105760188;;;ZKPiG nr 21 w Gdańsku
108132378;;;Szkoła Podstawowa im. Janusza Korczaka w Żarnowcu
108163414;;;Distinction Language Centre
112688911;;;Zespół Szkół im. Jana Pawła II
115569526;;;Szkoła Podstawowa nr 1
115994342;;;Zespół Szkół
116806368;;;Szkoła Podstawowa im. Obrońców Wybrzeża
120744388;;;Zespół Szkół Nr 1 im. Jana Pawła II
121190458;;;Gimnazjum imienia generała Mariusza Zaruskiego
122364205;;;Szkoła Podstawowa w Różynach
122504803;;;Młodzieżowy Ośrodek Wychowawczy Nr 1
123433650;;;Ośrodek Szkolno-Wychowawczy nr 2 dla Niesłyszacych i Słabosłyszących im. Jana Siestrzyńskiego w Wejherowie
124621792;;;Zespół Szkół Specjalnych
124648981;;;Gdańskie Szkoły Autonomiczne
124952484;;;I LO im. Mikołaja Kopernika
125769700;;;Szkoła Podstawowa
126116342;;;Szkoła Muzyczna I i II stopnia w Gdyni
126808234;;;
127728351;;;Zespół Szkół Plastycznych
128292500;;;Amerykańska Szkoła Podstawowa
129908146;;;
130117300;;;Zespół Szkół im. Karola Wojtyły w Rotmance
130117302;;;Zespół Szkół Ogrodniczych i Ogólnokształcących nr1 im. Marii Konopnickiej
130512248;;;Szkoła Podstawowa nr 3 im. Jana Matejki
130512249;;;Zespół Szkół Ogrodniczych i Ogólnokształcących im. Mariana Raciborskiego
130573446;;;Szkoła Podstawowa nr 16 im. Orła Białego
130626044;;;Zespół Szkół nr 15. Szkoła Podstawowa nr 48. Gimnazjum nr 20
130667626;;;Zespół Szkolno-Przedszkolny nr 1
133141477;;;Wyższa Szkoła Administracji i Biznesu
134952222;;;Zespół Szkół Ogólnokształcących Nr 5
136473690;;;
137088882;;;Szkoła Podstawowa nr 6
139842604;;;Zespół Szkół nr 1
141555382;;;Prywatna Szkoła Podstawowa
141555384;;;Szkoła Podstawowa nr 2 im. Małego Trójmiasta Kaszubskiego
142121386;;;Szkoła Podstawowa w Pogórzu
142199629;;;Żłobek, świetlica osiedlowa
142347526;;;Centrum Kształcenia Zawodowego i Ustawicznego Nr 2 w Gdańsku
142660279;;;II Liceum Ogólnokształcące imienia Bolesława Chrobrego
142706382;;;Zespół Szkół Łączności im. Obrońców Poczty Polskiej
142774463;;;
143069443;;;Szkoła Podstawowa nr 50 im. Emilii Plater
143872049;;;Zespół Szkół
144260689;;;Zespół Szkół
144318105;;;Zespół Szkolno-Przedszkolny
147421095;;;Szkoła Podstawowa, Gimnazjum
147536852;;;Zespół Szkół Ogólnokształcących nr 2 im. Teodora Bolduana w Wejherowie
148578884;;;Szkoła
148592361;;;Zespół Szkół Publicznych
149554223;;;Szkoła Podstawowa nr 29
149554229;;;Zespół Szkół Chłodniczych i Elektronicznych
149588297;;;Szkoła Podstawowa nr 12
155061387;;;Gimnazjum im. Wandy Chotomskiej
155243534;;;Szkoła Podstawowa nr 86
155249282;;;Szkoła Podstawowa nr 12
156868816;;;Zespół Szkół Ekologicznych
157029985;;;Gimnazjum nr 3
157030000;;;Szkoła Podstawowa nr 40 w Gdyni im. kpt.ż.w. K.O.Borchardta
157030204;;;IV Liceum Ogólnokształcące im. Komisji Edukacji Narodowej
158986881;;;Zespół Szkół w Gowidlinie
161962934;;;Szkoła Podstawowa z Oddziałami Integracyjnymi nr 5 im. Gryfitów
162067383;;;Publiczna Szkoła Podstawowa Nr 3 im. Władysława Broniewskiego w Starogardzie Gdańskim
162581613;;;Szkoła muzyczna
164577584;;;Gimnazjum nr 2 im. Jana Heweliusza
164820310;;;Zespół Szkół Publicznych w Mostach
166849760;;;XIX Liceum Ogólnokształcące
166849763;;;II Liceum Ogólnokształcące
167425670;;;Szkoła muzyczna Instytut Suzuki
167773946;;;Szkoła Podstawowa w Juracie
169279360;;;Szkoła Podstawowa w Tuchomiu
169343565;;;Zespół Szkół Rzemiosła i Handlu
169523592;;;Szkoła Podstawowa nr 10 w Gdyni im. Eugeniusza Kwiatkowskiego
169774372;;;Gimnazjum nr 29
170104224;;;SP nr 58
170143481;;;Gimnazjum nr 2
171038359;;;Zespół Publicznego Gimnazjum i Szkoły Podstawowej w Chwaszczynie
171793352;;;Szkoła Podstawowa nr 12
171837947;;;Zespół Kształcenia i Wychowania nr 1
172404689;;;Szkoła Podstawowa nr 8
172408149;;;Szkoła Podstawowa nr 11
172408151;;;II Liceum Ogólnokształcące
172408158;;;Zespół Szkół Ekonomicznych
172409682;;;Gimnazjum nr 3
172676500;;;Zespół Szkół w Kiełpinie
173112378;;;Zespół Szkół nr 14
176136382;;;Zespół Kształcenia Podstawowego i Gimnazjalnego
177594577;;;Szkoła Podstawowa i Gimnazjum w Chmielnie
177636448;;;Zespół Kształcenia Podstawowego i Gimnazjalnego nr 6 w Gdańsku im. Zasłużonych Ludzi Morza. Szkoła Podstawowa nr 19. Gimnazjum nr 7
179019141;;;Zespół Szkół Ogólnokształcących nr 6
179749646;;;Szkoła Podstawowa nr 42 im. I.J.Paderewskiego
179751352;;;III Liceum Ogólnokształcące im. Marynarki Wojennej RP w Gdyni
180356356;;;Zespół Szkół nr 6 w Gdyni
181861750;;;Szkoła Podstawowa nr 11
184388356;;;Szkoła Podstawowa Nr 69 im. generała Stanisława Sosabowskiego
185754052;;;Zespół Szkół Nr 11
187954456;;;Zespół Szkół w Redzikowie
188672815;;;Zespół Szkół im. Ignacego Krasickiego w Straszynie
188763651;;;Samorządowa Szkoła Podstawowa im. Jana Brzechwy
190550817;;;Szkoła Podstawowa nr 5 im. Fryderyka Chopina w Wejherowie
193028869;;;Szkoła Podstawowa i Gimnazjum i. Władysława Konefki
201278944;;;Szkoła Podstawowa nr 6
201334267;;;Mechanik Zespół Szkół Ponadgimnazjalnych nr 4
201594355;;;Zespół Szkół w Trumiejkach im. Adama Mickiewicza
201607839;;;Samorządowa Szkoła Podstawowa nr 28 im. Lotników Polskich
201607842;;;Specjalny Ośrodek Szkolno-Wychowawczy Nr 1 im. profesor Haliny Borzeszkowskiej
201607844;;;Zespół Szkół nr 12
201994947;;;Zespół Szkół Technicznych im. Eugeniusza Kwiatkowskiego
202061076;;;Szkoła Podstawowa nr 46
202061077;;;Zespół Kształcenia Podstawowego i Gimnazjalnego nr 12 w Gdańsku
202061079;;;Zespół Szkół nr 1 im. Marii Skłodowskiej-Curie
202236674;;;Państwowe Szkoły Budownictwa im. Mariana Osińskiego
202236675;;;Szkoła Podstawowa Nr 24
202236676;;;Zespół Szkół Kształcenia Podstawowego i Gimnazjalnego nr 2
202236677;;;Zespół Szkół Budowlano-Architektonicznych im. prof. Jerzego Stankiewicza
202770437;;;Szkoła Podstawowa Nr 81
202783940;;;Parafialna Szkoła Podstawowa im. św. Franciszka z Asyżu
202786615;;;Zespół Publicznego Gimnazjum i Szkoły Podstawowej w Leźnie
202789941;;;Szkoła Podstawowa nr 59
202799945;;;Zespół Szkół nr 2
202808337;;;Zespół Szkolno-Przedszkolny Szkoła Podstawowa im. mjr. Henryka Sucharskiego z Przedszkolem
203071638;;;Szkoła Podstawowa Nr 44 im. Adama Mickiewicza
203071639;;;Szkoła Podstawowa Nr 76 im. Jarosława Dąbrowskiego
203130078;;;Publiczne gimnazjum nr 2
203130079;;;Zespół Kształcenia Podstawowego i Przedszkolnego nr 1
203130081;;;Zespół Szkół Publicznych w Pączewie
203130082;;;Zespół Szkół nr 4 filia SP
203130083;;;Zespół Szkół w Nowej Karczmie
204526237;;;Zespół Kształcenia Podstawowego i Gimnazjalnego nr 17
204811760;;;Szkoła Podstawowa nr 33
204994899;;;
205506017;;;Zespół Szkół Nr 4
205507464;;;V Liceum Ogólnokształcące w Gdyni
207501543;;;Szkoła Podstawowa nr 52 im. Tadeusza Kościuszki
208553428;;;Szkoła Podstawowa nr 23
208560975;;;
208560976;;;Gimnazjum nr 1
209092639;;;Szkoła Podstawowa nr 6
210066030;;;Zespół Szkolno-Przedszkolny nr 4 w Gdyni im. Franciszka Sokoła
210306396;;;
215027792;;;Zespół Szkół Okrętnictwa
222366044;;;ZSP nr 3
226064590;;;Zespół Szkół Katolickich im. Jana Pawła II
226083989;;;Zespół Kształcenia i Wychowania w Szymbarku
226684096;;;Szkoła Podstawowa im. Polskich Noblistów w Łebczu
226764901;;;Gimnazjum nr 12 im. Marii Skłodowskiej-Curie
226944577;;;Szkoła Podstawowa Nr 1
227101002;;;III Liceum Ogólnokształcące
232277395;;;
235934562;;;Szkoła Podstawowa im. Partyzantów Kaszubskich
236032379;;;I Akademickie LO
237255844;;;
237255846;;;
237347626;;;Technikum Leśne w Warcinie
238362677;;;Szkoła Podstawowa nr 5 im. Jarosza Hieronima Derdowskiego
238556549;;;Publiczna Szkoła Podstawowa
238828448;;;Zespół Szkół Ogólnokształcących nr 8 im. Jana Pawła II
238981195;;;
241294885;;;Specjalny Ośrodek Szkolno-Wychowawczy
243898125;;;Zielona Szkoła
244215300;;;
244732730;;;Szkoła Podstawowa
245763857;;;Szkoła Podstawowa im. Feliksa Łojki w Szropach
246441172;;;
254683082;;;Szkoła Podstawowa nr 9
255396234;;;Szkoła Podstawowa nr 23 w Gdyni
256821555;;;Zespół Szkół nr 9 w Gdyni
256959916;;;Zespół Kształcenia Podstawowego i Gimnazjalnego Nr 29 przy Specjalistycznym Zespole Opieki Zdrowotnej nad Matką i Dzieckiem
257344055;;;
257344688;;;
257348379;;;
257976070;;;I Liceum Ogólnokształcące im. Hieronima Derdowskiego
258593474;;;
258831911;;;Specjalny Ośrodek Szkolno-Wychowawczy
261260143;;;Szkoła Podstawowa nr 2
261485173;;;
261526971;;;
264750339;;;
265020429;;;Szkoła Podstawowa nr 34
266107023;;;Zespół Szkół Rolniczych Centrum Kształcenia Praktycznego w Rusocinie
268107188;;;
271555564;;;Szkoła Podstawowa nr 2
274356220;;;Szkoła Podstawowa nr 61 im. Józefa Wybickiego
274630928;;;Zespół Szkół w Lubaniu
275715310;;;Zespół Szkół w Bożympolu Wielkim
278299946;;;
281297935;;;
283167986;;;
289514281;;;Szkoła Podstawowa nr 35
289882461;;;Szkoła podstawowa
291789320;;;Gimnazjum nr 4
292634254;;;Zespół Szkół Publicznych nr 3
292657234;;;ZKPiG nr 20
292951727;;;Szkoła Podstawowa
295110179;;;
297871215;;;
299405449;;;Szkoła Podstawowa im. Remusa
299804041;;;Szkoła Podstawowa nr 20
300222312;;;Szkoła Podstawowa im. Floriana Ceynowy
300222352;;;Zespół Szkół Ponadgimnazjalnych
300222355;;;Gimnazjum im. Józefa Piłsudskiego
300632313;;;Zespół Szkół w Leśnicach
300879031;;;
301395966;;;
301443242;;;Zespół Szkół Gospodarki Żywnościowej i Agrobiznesu
301443353;;;Gimnazjum nr 1 w Lęborku
301444327;;;Szkoła Podstawowa nr 8
301444454;;;Szkoła Podstawowa nr 8
301444538;;;SGJ
301444936;;;
301444944;;;Gimnazjum nr 2 w Lęborku
301445023;;;Zespół Szkół Mechaniczno-Informatycznych & Liceum Ogólnokształcące nr 2 im. Karola Wojtyły
301445562;;;Szkoła Podstawowa nr 3
302569425;;;Zespół Szkół nr 2
303944053;;;
303944054;;;
303944055;;;Szkoła Podstawowa w Borkowie
303944056;;;Szkoła Podstawowa w Przyjaźni
303944057;;;Szkoła Podstawowa w Skrzeszewie
303944868;;;Szkoła Podstawowa w Pępowie
303944869;;;Gimnazjum
304725628;;;Zespół Szkół im. Strażaków Polskich
309548516;;;Szkoła Podstawowa nr 82
309551559;;;Samorządowa Szkoła Podstawowa im. Alojzego Nagla w Nowym Dworze Wejherowskim
309632262;;;Publiczne Gimnazjum Nr 2 im. A. Mickiewicza w Starogardzie Gdańskim
312151756;;;Publiczna Szkoła Podstawowa nr 1 im. Henryka Sienkiewicza w Starogardzie Gdańskim
323599496;;;
326210116;;;
330865450;;;Szkoła Podstawowa nr 2 im. Obrońców Westerplatte w Prabutach
330865452;;;Gimnazjum im. Marii Skłodowskiej-Curie w Prabutach
331633423;;;Gimnazjum nr 25
338521815;;;Zespół Szkół Sportowych i Ogólnokształcących
338675309;;;
340137961;;;Publiczna Szkoła Podstawowa Nr 4 z Oddziałami Integracyjnymi im. Juliusza Słowackiego
340288951;;;Filia Publicznej Szkoły Podstawowej Nr 4 im. Juliusza Słowackiego
340288952;;;I Liceum Ogólnokształcące w Starogardzie Gdańskim im. Marii Skłodowskiej-Curie
340288954;;;Publiczne Gimnazjum Nr 1 im. Mikołaja Kopernika w Starogardzie Gdańskim
340288955;;;Publiczne Gimnazjum Nr 3 im. Stanisława Staszica
343520944;;;
350644552;;;Zespół Szkół Ponadgimnazjalnych w Prabutach
350717355;;;
351252733;;;Zespół Szkół Ponadgimnazjalnych
355248267;;;
355531758;;;Szkoła Podstawowa nr 13
356823025;;;
358044280;;;
358191934;;;Szkoła Podstawowa
359880384;;;Szkoła Podstawowa Nr 83
360605116;;;
361081761;;;Pozytywna Szkoła Podstawowa
361202526;;;Szkoła Podstawowa nr 84
362664349;;;
362664354;;;Szkoła Podstawowa im. Andrzeja Grubby w Przytocku
362777578;;;Szkoła Muzyczna
363213988;;;Szkoła podstawowa nr 47
363722735;;;Szkoła Podstawowa nr 1 im. Przyjaciół Ziemi
367995841;;;Szkoła Podstawowa nr 65
367995842;;;Gimnazjum nr 9
368750826;;;
370724970;;;
377548282;;;Szkoła Podstawowa nr 3
381748584;;;I Liceum Ogólnokształcące w Tczewie
381748586;;;Zespół Szkół Katolickich
382552982;;;Zespół Szkół Specjalnych
385414849;;;Zespół Szkół Ponadgimnazjalnych nr 2
386380442;;;
386380443;;;
390198265;;;Państwowa Szkoła Muzyczna I stopnia im. Mieczysława Michalskiego
391879249;;;Powiatowe Centrum Edukacyjne Zespół Szkół Ponadgimnazjalnych im. Eugeniusza Kwiatkowskiego w Lęborku
395649563;;;Zespół Szkół Zawodowych im. mjr H. Dobrzańskiego HUBALA
395698348;;;
395698353;;;II Liceum Ogólnokształcące im. Ziemi Kociewskiej
399123257;;;Gimnazjum nr 1 im. Kazimierza Jagiellończyka
399123259;;;
401567117;;;Gimnazjum nr 2
405169938;;;Gimnazjum Publiczne im. Zygmunta Steinborn w Przezmarku
409471261;;;Szkoła Podstawowa
415757626;;;Szkoła Podstawowa w Obrzynowie
431659116;;;Gdyńska Szkoła Społeczna
431659118;;;Zespół Szkół Hotelarsko-Gastronomicznych
431659119;;;Zespół Szkół Mechanicznych im. Tadeusza Wendy
431673704;;;Gimnazjum nr 2
431673705;;;Zespół Szkół Ogólnokształcących nr 2
431831747;;;Szkoła Podstawowa Nr 5 im. Wojska Polskiego w Lęborku
432079765;;;
432444360;;;
432845058;;;Szkoła Podstawowa nr 29
433031007;;;Technikum Transportowe
433836611;;;Zespół Szkół Plastycznych
433836612;;;Zespół Szkół nr 5
434486884;;;
434974989;;;
436060603;;;Zespół Szkół Energetycznych
436661938;;;Szkoła Podstawowa i Przedszkole "Olimpijczyk"
436750660;;;Zespół Szkół w Bojanie
437022271;;;Szkoła Podstawowa im. Bohaterów Westerplatte
437563953;;;Szkoła Podstawowa nr 18 im. Kornela Makuszyńskiego
438489890;;;Szkoła Podstawowa w Wilanowie
439451354;;;10. Liceum Ogólnokształcące
440228522;;;Szkoła Podstawowa nr 39
440230274;;;
440518374;;;Szkoły im. św. Jana de La Salle
440837730;;;Gimnazjum nr 11
441115860;;;Ogólnokształcąca Szkoła Muzyczna I i II st.
441241070;;;VI Liceum Ogólnokształcące
441476794;;;Sportowa Szkoła Podstawowa nr 14
441812866;;;Zespół Szkół nr 10
441827049;;;Gimnazjum i Liceum Jezuitów im. św. Stanisława Kostki
441875987;;;Szkoła Podstawowa nr26
442214110;;;
448006401;;;Zespół Kształcenia Podstawowego i Gimnazjalnego Nr27
451569548;;;
451569549;;;
451570036;;;
451576487;;;Poprawczak
451796220;;;Gimnazjum nr 1
456605921;;;Samorządowa Szkoła Podstawowa im. Jakuba Wejhera
460978059;;;
464352138;;;
470812857;;;Szkoła Podstawowa
475682042;;;
478009657;;;
478650914;;;
478650915;;;
480042876;;;Szkola Podstawowa nr 21
480516642;;;
481693210;;;Szkoła Podstawowa im. Polskich Olimpijczyków
490967870;;;Pomorskie Szkoły Rzemiosł
491054744;;;CKZiU nr 1
493326215;;;Zespół Kształecnia i Wychowania
497428286;;;Szkoła Podstawowa w Sąpólnie
499374077;;;
499711731;;;
505853844;;;Szkołą Podstaowa Nr 5 im. Jana Drzeżdżona
506036756;;;Szkołą Podstawowa im. Jana Pawłą II
506046453;;;Zespół Szkół w Strzepczu
517414882;;;Szkoła Podstawowa Nr 45
517431864;;;Zespół Szkolno-Przedszkolny w Dębogórzu
522023529;;;Szkoła Podstawowa nr 18
524742163;;;Szkoła Podstawowa
524844350;;;Szkoła Podstawowa nr 39
525154227;;;Szkoła Podstawowa
527602808;;;Zespół Kształcenia Podstawowego i Gimnazjalnego nr 24
528669623;;;Szkoła Podstawowa im. ks. J.P. Aeltermanna
528761632;;;Zespół Szkół Ogólnokształcących Nr 6
543890199;;;Prywatna Dwujęzyczna Szkoła Podstawowa Naja Szkòła
549620324;;;Szkoła Podstawowa im. Józefa Wierzbickiego
550317254;;;TE Vizja
553351910;;;
555454812;;;Szkoła Podstawowa nr 1
556141795;;;Szkoła Podstawowa im. Marszałka Józefa Piłsudskiego w Niezabyszewie
562007441;;;Szkoła Podstawowa nr 79
567530815;;;Szkoła Podstawowa nr 9 im. gen. Józefa Wybickiego w Wejherowie
567567209;;;Szkoła Podstawowa nr 80 im. Budowniczych Portu Północnego
568277741;;;Powiatowy Zespół Szkół nr 4 im. Jakuba Wejhera w Wejherowie
569406334;;;Szkoła Podstawowa nr 6 im. Tadeusza Kościuszki w Wejherowie
569415127;;;Szkoła Podstawowa im. Józefa Dambka
569876240;;;Szkoła Podstawowa nr 8 im. Martyrologii Piaśnicy w Wejherowie
570057928;;;Powiatowy Zespół Szkół nr 1 w Wejherowie
571060317;;;Powiatowy Zespół Szkół nr 2 im. Bohaterskiej Załogi ORP „Orzeł”
571062573;;;Niepubliczna Szkoła Rzemiosła w Wejherowie
571071302;;;Szkoła Podstawowa nr 9 im. gen. Józefa Wybickiego w Wejherowie
571086174;;;Szkoła Podstawowa Zgromadzenia Sióstr Zmartwychwstania Pańskiego im. bł. Alicji Kotowskiej w Wejherowie
571230525;;;Powiatowy Zespół Kształcenia Specjalnego
571438350;;;Społeczna Szkoła Podstawowa nr 1 im. Janusza Korczaka w Wejherowie
571451797;;;Powiatowy Zespół Szkół Policealnych im. Zdzisława Kieturakisa w Wejherowie
571454113;;;Państwowa Szkoła Muzyczna  I stopnia im. Fryderyka Chopina w Wejherowie
571805828;;;Powiatowy Zespół Szkół nr 3 w Wejherowie im. ks. Edmunda Roszczynialskiego w Wejherowie
572454876;;;Zespół Szkół Ogólnokształcących nr 2 im. Teodora Bolduana w Wejherowie
572719238;;;Szkoła Podstawowa im. por. Jana Penconka
576497941;;;Liceum Ogólnokształcące im. Wincentego Pola w Czersku
576918244;;;
579850556;;;
579856694;;;
5369957;;;ZSP nr 1
